{"businesses":[{"id":"SYR-50l8oJmxYUS5QkSPQg","alias":"atlanta-food-truck-park-atlanta-2","name":"Atlanta Food Truck Park","image_url":"https://s3-media3.fl.yelpcdn.com/bphoto/tNtzebcBarlG41NpxEvjlw/o.jpg","is_closed":false,"url":"https://www.yelp.com/biz/atlanta-food-truck-park-atlanta-2?adjust_creative=LW1faTqqLFzjLdURqioDOA&utm_campaign=yelp_api_v3&utm_medium=api_v3_business_search&utm_source=LW1faTqqLFzjLdURqioDOA","review_count":169,"categories":[{"alias":"streetvendors","title":"Street Vendors"},{"alias":"foodstands","title":"Food Stands"}],"rating":3.5,"coordinates":{"latitude":33.8063953879368,"longitude":-84.4136238098145},"transactions":[],"price":"$","location":{"address1":"1850 Howell Mill Rd","address2":"","address3":"","city":"Atlanta","zip_code":"30318","country":"US","state":"GA","display_address":["1850 Howell Mill Rd","Atlanta, GA 30318"]},"phone":"","display_phone":"","distance":3772.314546015105},{"id":"rFYqr2wSHR7lyKOB0z0LAA","alias":"street-food-thursdays-atlanta","name":"Street Food Thursdays","image_url":"https://s3-media1.fl.yelpcdn.com/bphoto/rm96RWBCAg8JZbhE4XH-fw/o.jpg","is_closed":false,"url":"https://www.yelp.com/biz/street-food-thursdays-atlanta?adjust_creative=LW1faTqqLFzjLdURqioDOA&utm_campaign=yelp_api_v3&utm_medium=api_v3_business_search&utm_source=LW1faTqqLFzjLdURqioDOA","review_count":38,"categories":[{"alias":"foodstands","title":"Food Stands"},{"alias":"streetvendors","title":"Street Vendors"}],"rating":4.5,"coordinates":{"latitude":33.784453,"longitude":-84.383091},"transactions":[],"price":"$","location":{"address1":"12th & Peachtree St","address2":"","address3":"","city":"Atlanta","zip_code":"30309","country":"US","state":"GA","display_address":["12th & Peachtree St","Atlanta, GA 30309"]},"phone":"","display_phone":"","distance":3315.3941447678712},{"id":"QB9tPW5xpZUsrajuqdY2cQ","alias":"the-deep-south-biscuit-company-food-truck-atlanta-2","name":"The Deep South Biscuit Company Food Truck","image_url":"https://s3-media4.fl.yelpcdn.com/bphoto/XIqZ5ibWPJOMSR7wqBvyiw/o.jpg","is_closed":false,"url":"https://www.yelp.com/biz/the-deep-south-biscuit-company-food-truck-atlanta-2?adjust_creative=LW1faTqqLFzjLdURqioDOA&utm_campaign=yelp_api_v3&utm_medium=api_v3_business_search&utm_source=LW1faTqqLFzjLdURqioDOA","review_count":34,"categories":[{"alias":"foodtrucks","title":"Food Trucks"},{"alias":"southern","title":"Southern"},{"alias":"sandwiches","title":"Sandwiches"}],"rating":3.5,"coordinates":{"latitude":33.8411839814955,"longitude":-84.3782584684998},"transactions":[],"price":"$","location":{"address1":"3173 Roswell Rd","address2":"","address3":"","city":"Atlanta","zip_code":"30305","country":"US","state":"GA","display_address":["3173 Roswell Rd","Atlanta, GA 30305"]},"phone":"+14048240121","display_phone":"(404) 824-0121","distance":3139.5042052860895},{"id":"XwHYCFQjaNIQVLYX0vkG3w","alias":"bento-bus-atlanta","name":"Bento Bus","image_url":"https://s3-media2.fl.yelpcdn.com/bphoto/pyRj8kXBx_YUkBpmPQgdCQ/o.jpg","is_closed":false,"url":"https://www.yelp.com/biz/bento-bus-atlanta?adjust_creative=LW1faTqqLFzjLdURqioDOA&utm_campaign=yelp_api_v3&utm_medium=api_v3_business_search&utm_source=LW1faTqqLFzjLdURqioDOA","review_count":41,"categories":[{"alias":"foodtrucks","title":"Food Trucks"}],"rating":4.5,"coordinates":{"latitude":33.92628,"longitude":-84.26904},"transactions":[],"price":"$","location":{"address1":"","address2":"","address3":"","city":"Atlanta","zip_code":"30360","country":"US","state":"GA","display_address":["Atlanta, GA 30360"]},"phone":"+16784396277","display_phone":"(678) 439-6277","distance":16479.71458728397},{"id":"XhoqCvBj7fUa83-guN_2hw","alias":"proposito-atlanta","name":"Proposito","image_url":"https://s3-media4.fl.yelpcdn.com/bphoto/hIxFX8Fw0uslT0MZMLyefA/o.jpg","is_closed":false,"url":"https://www.yelp.com/biz/proposito-atlanta?adjust_creative=LW1faTqqLFzjLdURqioDOA&utm_campaign=yelp_api_v3&utm_medium=api_v3_business_search&utm_source=LW1faTqqLFzjLdURqioDOA","review_count":21,"categories":[{"alias":"foodtrucks","title":"Food Trucks"},{"alias":"tacos","title":"Tacos"}],"rating":5.0,"coordinates":{"latitude":33.8214395,"longitude":-84.3674012},"transactions":[],"price":"$","location":{"address1":"635 Lindbergh Dr NE","address2":"","address3":null,"city":"Atlanta","zip_code":"30324","country":"US","state":"GA","display_address":["635 Lindbergh Dr NE","Atlanta, GA 30324"]},"phone":"+16788271712","display_phone":"(678) 827-1712","distance":1080.5114008980854},{"id":"3Gol3ovHwXc88rvJeMcaEg","alias":"the-fry-guy-atlanta","name":"The Fry Guy","image_url":"https://s3-media4.fl.yelpcdn.com/bphoto/khdCa1cFjX_UxfhmJ0N8bg/o.jpg","is_closed":false,"url":"https://www.yelp.com/biz/the-fry-guy-atlanta?adjust_creative=LW1faTqqLFzjLdURqioDOA&utm_campaign=yelp_api_v3&utm_medium=api_v3_business_search&utm_source=LW1faTqqLFzjLdURqioDOA","review_count":34,"categories":[{"alias":"foodtrucks","title":"Food Trucks"},{"alias":"gourmet","title":"Specialty Food"}],"rating":4.0,"coordinates":{"latitude":33.78889,"longitude":-84.34266},"transactions":[],"price":"$","location":{"address1":"","address2":"","address3":"","city":"Atlanta","zip_code":"30306","country":"US","state":"GA","display_address":["Atlanta, GA 30306"]},"phone":"+14042665729","display_phone":"(404) 266-5729","distance":3919.855700040251},{"id":"D1bgE8BbSzW0IWl7S5IBhA","alias":"babakabab-atlanta","name":"Babakabab!","image_url":"https://s3-media1.fl.yelpcdn.com/bphoto/VVAXYVsyUpitOEn8uxEXoA/o.jpg","is_closed":false,"url":"https://www.yelp.com/biz/babakabab-atlanta?adjust_creative=LW1faTqqLFzjLdURqioDOA&utm_campaign=yelp_api_v3&utm_medium=api_v3_business_search&utm_source=LW1faTqqLFzjLdURqioDOA","review_count":3,"categories":[{"alias":"lebanese","title":"Lebanese"},{"alias":"foodtrucks","title":"Food Trucks"}],"rating":4.5,"coordinates":{"latitude":33.9180335998535,"longitude":-84.2490386962891},"transactions":[],"location":{"address1":null,"address2":null,"address3":"","city":"Atlanta","zip_code":"30340","country":"US","state":"GA","display_address":["Atlanta, GA 30340"]},"phone":"+14702526932","display_phone":"(470) 252-6932","distance":14842.101141067771},{"id":"x5-0jj4W6ZaxUFFBbvg8eg","alias":"ibiza-bites-atlanta-5","name":"Ibiza Bites","image_url":"https://s3-media3.fl.yelpcdn.com/bphoto/U5zzcnE7ogz_wLLuczF1_g/o.jpg","is_closed":false,"url":"https://www.yelp.com/biz/ibiza-bites-atlanta-5?adjust_creative=LW1faTqqLFzjLdURqioDOA&utm_campaign=yelp_api_v3&utm_medium=api_v3_business_search&utm_source=LW1faTqqLFzjLdURqioDOA","review_count":47,"categories":[{"alias":"streetvendors","title":"Street Vendors"},{"alias":"foodtrucks","title":"Food Trucks"}],"rating":4.0,"coordinates":{"latitude":33.8328115,"longitude":-84.3381237},"transactions":[],"price":"$","location":{"address1":"6 W Druid Hills Dr NE","address2":"","address3":"","city":"Atlanta","zip_code":"30329","country":"US","state":"GA","display_address":["6 W Druid Hills Dr NE","Atlanta, GA 30329"]},"phone":"+14048579308","display_phone":"(404) 857-9308","distance":3787.075848583125},{"id":"3-_U4d1D97LmhBT_OWZ5uA","alias":"the-flightless-byrd-atlanta","name":"The Flightless Byrd","image_url":"https://s3-media4.fl.yelpcdn.com/bphoto/EhUgpUVKV0KDzX8KGGQp-g/o.jpg","is_closed":false,"url":"https://www.yelp.com/biz/the-flightless-byrd-atlanta?adjust_creative=LW1faTqqLFzjLdURqioDOA&utm_campaign=yelp_api_v3&utm_medium=api_v3_business_search&utm_source=LW1faTqqLFzjLdURqioDOA","review_count":2,"categories":[],"rating":4.0,"coordinates":{"latitude":33.7844879443642,"longitude":-84.3827544856472},"transactions":[],"location":{"address1":"12th & Peachtree St","address2":"","address3":"Food Truck","city":"Atlanta","zip_code":"30309","country":"US","state":"GA","display_address":["12th & Peachtree St","Food Truck","Atlanta, GA 30309"]},"phone":"","display_phone":"","distance":3303.5710328225487},{"id":"cf-tv7Vfr5TpvIGYZcpuVg","alias":"good-food-truck-atlanta","name":"Good Food Truck","image_url":"https://s3-media4.fl.yelpcdn.com/bphoto/cW8pd9nwoyMUxIh3WSOJtQ/o.jpg","is_closed":false,"url":"https://www.yelp.com/biz/good-food-truck-atlanta?adjust_creative=LW1faTqqLFzjLdURqioDOA&utm_campaign=yelp_api_v3&utm_medium=api_v3_business_search&utm_source=LW1faTqqLFzjLdURqioDOA","review_count":24,"categories":[{"alias":"foodtrucks","title":"Food Trucks"}],"rating":4.5,"coordinates":{"latitude":33.820011138916,"longitude":-84.3650360107422},"transactions":[],"price":"$","location":{"address1":"","address2":"","address3":"","city":"Atlanta","zip_code":"30324","country":"US","state":"GA","display_address":["Atlanta, GA 30324"]},"phone":"+16784818182","display_phone":"(678) 481-8182","distance":1430.9045929210483},{"id":"JxWv2vmDSDTlOM9jX8LkDA","alias":"frosty-caboose-chamblee","name":"Frosty Caboose","image_url":"https://s3-media3.fl.yelpcdn.com/bphoto/rvgtRAlsH3asdrVd2st5Dg/o.jpg","is_closed":false,"url":"https://www.yelp.com/biz/frosty-caboose-chamblee?adjust_creative=LW1faTqqLFzjLdURqioDOA&utm_campaign=yelp_api_v3&utm_medium=api_v3_business_search&utm_source=LW1faTqqLFzjLdURqioDOA","review_count":156,"categories":[{"alias":"icecream","title":"Ice Cream & Frozen Yogurt"}],"rating":4.5,"coordinates":{"latitude":33.8931999206543,"longitude":-84.2996826171875},"transactions":[],"price":"$","location":{"address1":"5435 Peachtree Rd","address2":"","address3":"","city":"Chamblee","zip_code":"30341","country":"US","state":"GA","display_address":["5435 Peachtree Rd","Chamblee, GA 30341"]},"phone":"+17704514556","display_phone":"(770) 451-4556","distance":11208.568824713911},{"id":"OW2WgUu037ofI-DcuC2DXA","alias":"uptown-food-truck-atlanta","name":"Uptown Food Truck","image_url":"https://s3-media3.fl.yelpcdn.com/bphoto/NSNOVxBkcsTk9PNTyehOGw/o.jpg","is_closed":false,"url":"https://www.yelp.com/biz/uptown-food-truck-atlanta?adjust_creative=LW1faTqqLFzjLdURqioDOA&utm_campaign=yelp_api_v3&utm_medium=api_v3_business_search&utm_source=LW1faTqqLFzjLdURqioDOA","review_count":3,"categories":[{"alias":"tradamerican","title":"American (Traditional)"},{"alias":"chicken_wings","title":"Chicken Wings"}],"rating":2.0,"coordinates":{"latitude":33.88537,"longitude":-84.26475},"transactions":[],"location":{"address1":"3300 Marjan Dr","address2":null,"address3":"","city":"Atlanta","zip_code":"30340","country":"US","state":"GA","display_address":["3300 Marjan Dr","Atlanta, GA 30340"]},"phone":"+12566481284","display_phone":"(256) 648-1284","distance":12872.522132582351},{"id":"sk_1dGGhqZxBsyHnFI2JUQ","alias":"tasting-maine-doraville","name":"Tasting Maine","image_url":"https://s3-media3.fl.yelpcdn.com/bphoto/-tOkyCCrG9FanNZFmz97Pw/o.jpg","is_closed":false,"url":"https://www.yelp.com/biz/tasting-maine-doraville?adjust_creative=LW1faTqqLFzjLdURqioDOA&utm_campaign=yelp_api_v3&utm_medium=api_v3_business_search&utm_source=LW1faTqqLFzjLdURqioDOA","review_count":2,"categories":[{"alias":"foodtrucks","title":"Food Trucks"}],"rating":4.0,"coordinates":{"latitude":33.885607,"longitude":-84.264653},"transactions":[],"price":"$$","location":{"address1":"3300 Marjan Dr","address2":"","address3":"","city":"Doraville","zip_code":"30340","country":"US","state":"GA","display_address":["3300 Marjan Dr","Doraville, GA 30340"]},"phone":"+17706823908","display_phone":"(770) 682-3908","distance":12886.940822297338},{"id":"vizHTCsxIyjn174QaR13ug","alias":"soul-truckin-good-atlanta-4","name":"Soul Truckin Good","image_url":"https://s3-media1.fl.yelpcdn.com/bphoto/exkNxZoqo1F4jorj6hvOoA/o.jpg","is_closed":false,"url":"https://www.yelp.com/biz/soul-truckin-good-atlanta-4?adjust_creative=LW1faTqqLFzjLdURqioDOA&utm_campaign=yelp_api_v3&utm_medium=api_v3_business_search&utm_source=LW1faTqqLFzjLdURqioDOA","review_count":17,"categories":[{"alias":"bbq","title":"Barbeque"},{"alias":"foodtrucks","title":"Food Trucks"},{"alias":"catering","title":"Caterers"}],"rating":4.0,"coordinates":{"latitude":33.8854168,"longitude":-84.26467},"transactions":["pickup"],"price":"$$","location":{"address1":"3300 Marjan Dr","address2":null,"address3":null,"city":"Atlanta","zip_code":"30340","country":"US","state":"GA","display_address":["3300 Marjan Dr","Atlanta, GA 30340"]},"phone":"+14046706947","display_phone":"(404) 670-6947","distance":12872.522132582351},{"id":"zmvl4ImhwOLfWdumpsymNA","alias":"the-pickle-atlanta-2","name":"The Pickle","image_url":"https://s3-media4.fl.yelpcdn.com/bphoto/LpQTuE7_3_A_X4ozwmTTBA/o.jpg","is_closed":false,"url":"https://www.yelp.com/biz/the-pickle-atlanta-2?adjust_creative=LW1faTqqLFzjLdURqioDOA&utm_campaign=yelp_api_v3&utm_medium=api_v3_business_search&utm_source=LW1faTqqLFzjLdURqioDOA","review_count":25,"categories":[{"alias":"foodtrucks","title":"Food Trucks"}],"rating":4.0,"coordinates":{"latitude":33.7450523,"longitude":-84.3759765},"transactions":[],"price":"$","location":{"address1":"","address2":"","address3":"","city":"Atlanta","zip_code":"30312","country":"US","state":"GA","display_address":["Atlanta, GA 30312"]},"phone":"+14044219080","display_phone":"(404) 421-9080","distance":7582.239490136507},{"id":"X7knQxrMdUEnCe4AR4BR8A","alias":"greedymans-bar-b-que-and-grill-atlanta","name":"Greedyman's Bar B Que & Grill","image_url":"https://s3-media4.fl.yelpcdn.com/bphoto/BILt-6duRHY5o_5l7Xi-dg/o.jpg","is_closed":false,"url":"https://www.yelp.com/biz/greedymans-bar-b-que-and-grill-atlanta?adjust_creative=LW1faTqqLFzjLdURqioDOA&utm_campaign=yelp_api_v3&utm_medium=api_v3_business_search&utm_source=LW1faTqqLFzjLdURqioDOA","review_count":5,"categories":[{"alias":"foodtrucks","title":"Food Trucks"},{"alias":"bbq","title":"Barbeque"},{"alias":"catering","title":"Caterers"}],"rating":5.0,"coordinates":{"latitude":33.89076,"longitude":-84.23249},"transactions":[],"location":{"address1":"","address2":null,"address3":"","city":"Atlanta","zip_code":"30340","country":"US","state":"GA","display_address":["Atlanta, GA 30340"]},"phone":"+17707429612","display_phone":"(770) 742-9612","distance":14842.101141067771},{"id":"9moxZgP5NW_Bdmfu-hzoAw","alias":"texs-tacos-atlanta","name":"Tex's Tacos","image_url":"https://s3-media3.fl.yelpcdn.com/bphoto/NC6X67uEnr8J3cg5ilrO4A/o.jpg","is_closed":false,"url":"https://www.yelp.com/biz/texs-tacos-atlanta?adjust_creative=LW1faTqqLFzjLdURqioDOA&utm_campaign=yelp_api_v3&utm_medium=api_v3_business_search&utm_source=LW1faTqqLFzjLdURqioDOA","review_count":89,"categories":[{"alias":"tex-mex","title":"Tex-Mex"},{"alias":"mexican","title":"Mexican"},{"alias":"foodtrucks","title":"Food Trucks"}],"rating":4.0,"coordinates":{"latitude":33.817488992659,"longitude":-84.3960438826172},"transactions":[],"price":"$","location":{"address1":"108 Howell St NE","address2":"","address3":"","city":"Atlanta","zip_code":"30312","country":"US","state":"GA","display_address":["108 Howell St NE","Atlanta, GA 30312"]},"phone":"+16783798397","display_phone":"(678) 379-8397","distance":2124.877245246631},{"id":"oqxxscRne5rj5hyxCHpXqQ","alias":"yumbii-atlanta","name":"Yumbii","image_url":"https://s3-media1.fl.yelpcdn.com/bphoto/SkxOIUoOw_XgfDP_ewpc-g/o.jpg","is_closed":false,"url":"https://www.yelp.com/biz/yumbii-atlanta?adjust_creative=LW1faTqqLFzjLdURqioDOA&utm_campaign=yelp_api_v3&utm_medium=api_v3_business_search&utm_source=LW1faTqqLFzjLdURqioDOA","review_count":236,"categories":[{"alias":"mexican","title":"Mexican"},{"alias":"foodtrucks","title":"Food Trucks"}],"rating":4.0,"coordinates":{"latitude":33.8073749,"longitude":-84.3935344},"transactions":["delivery","pickup"],"price":"$","location":{"address1":"1927 Peachtree Rd","address2":"","address3":"","city":"Atlanta","zip_code":"30309","country":"US","state":"GA","display_address":["1927 Peachtree Rd","Atlanta, GA 30309"]},"phone":"+14049753444","display_phone":"(404) 975-3444","distance":1950.4759968955452},{"id":"R8WY4mv7UxDQSDsw6V-1xg","alias":"terminus-330-atlanta","name":"Terminus 330","image_url":"https://s3-media1.fl.yelpcdn.com/bphoto/BTrq_VR1Hmm4zldkD5nVlw/o.jpg","is_closed":false,"url":"https://www.yelp.com/biz/terminus-330-atlanta?adjust_creative=LW1faTqqLFzjLdURqioDOA&utm_campaign=yelp_api_v3&utm_medium=api_v3_business_search&utm_source=LW1faTqqLFzjLdURqioDOA","review_count":7,"categories":[{"alias":"venues","title":"Venues & Event Spaces"}],"rating":4.5,"coordinates":{"latitude":33.762043,"longitude":-84.3966904},"transactions":[],"location":{"address1":"330 Marietta St NW","address2":"","address3":"","city":"Atlanta","zip_code":"30313","country":"US","state":"GA","display_address":["330 Marietta St NW","Atlanta, GA 30313"]},"phone":"+14047864598","display_phone":"(404) 786-4598","distance":6072.192815889914},{"id":"0rv_iYnUnPoAt1YnVlKwGA","alias":"the-muenster-truck-atlanta","name":"The Muenster Truck","image_url":"https://s3-media2.fl.yelpcdn.com/bphoto/wTbh6P-nrRO9EYG7o5TCHA/o.jpg","is_closed":false,"url":"https://www.yelp.com/biz/the-muenster-truck-atlanta?adjust_creative=LW1faTqqLFzjLdURqioDOA&utm_campaign=yelp_api_v3&utm_medium=api_v3_business_search&utm_source=LW1faTqqLFzjLdURqioDOA","review_count":4,"categories":[{"alias":"foodtrucks","title":"Food Trucks"},{"alias":"foodstands","title":"Food Stands"},{"alias":"comfortfood","title":"Comfort Food"}],"rating":4.5,"coordinates":{"latitude":33.8989143371582,"longitude":-84.2536010742188},"transactions":[],"price":"$$","location":{"address1":"","address2":null,"address3":"","city":"Atlanta","zip_code":"30340","country":"US","state":"GA","display_address":["Atlanta, GA 30340"]},"phone":"+14049181947","display_phone":"(404) 918-1947","distance":14842.101141067771},{"id":"dBy1wm6sxkGXkBLtzn_g5A","alias":"the-pup-truck-atlanta","name":"The Pup Truck","image_url":"https://s3-media2.fl.yelpcdn.com/bphoto/tRutSWM8EGi18Ten2IVaCw/o.jpg","is_closed":false,"url":"https://www.yelp.com/biz/the-pup-truck-atlanta?adjust_creative=LW1faTqqLFzjLdURqioDOA&utm_campaign=yelp_api_v3&utm_medium=api_v3_business_search&utm_source=LW1faTqqLFzjLdURqioDOA","review_count":33,"categories":[{"alias":"newamerican","title":"American (New)"},{"alias":"foodtrucks","title":"Food Trucks"},{"alias":"tradamerican","title":"American (Traditional)"}],"rating":4.0,"coordinates":{"latitude":33.7820009374254,"longitude":-84.3838405609131},"transactions":[],"price":"$","location":{"address1":"455 Plasamour Dr","address2":"","address3":"","city":"Atlanta","zip_code":"30324","country":"US","state":"GA","display_address":["455 Plasamour Dr","Atlanta, GA 30324"]},"phone":"+16788567170","display_phone":"(678) 856-7170","distance":3596.6709719917144},{"id":"1yIMWoDqYgkDXnKbOfNy9w","alias":"indie-craft-experience-atlanta-2","name":"Indie Craft Experience","image_url":"https://s3-media1.fl.yelpcdn.com/bphoto/mebJMsv5FKZ-ECfCZpxxrw/o.jpg","is_closed":false,"url":"https://www.yelp.com/biz/indie-craft-experience-atlanta-2?adjust_creative=LW1faTqqLFzjLdURqioDOA&utm_campaign=yelp_api_v3&utm_medium=api_v3_business_search&utm_source=LW1faTqqLFzjLdURqioDOA","review_count":10,"categories":[{"alias":"artsandcrafts","title":"Arts & Crafts"}],"rating":4.5,"coordinates":{"latitude":33.7511449022091,"longitude":-84.3890899792314},"transactions":[],"price":"$$$","location":{"address1":"585 Wells St SW","address2":"Unit A","address3":"Ambient Plus Studio","city":"Atlanta","zip_code":"30312","country":"US","state":"GA","display_address":["585 Wells St SW","Unit A","Ambient Plus Studio","Atlanta, GA 30312"]},"phone":"","display_phone":"","distance":7048.07337081908},{"id":"-ppewVpozAC5QGoLXp4bQg","alias":"the-queso-truck-atlanta","name":"The Queso Truck","image_url":"https://s3-media1.fl.yelpcdn.com/bphoto/hXYZ0vkfs-5uEMkx9dpsmw/o.jpg","is_closed":false,"url":"https://www.yelp.com/biz/the-queso-truck-atlanta?adjust_creative=LW1faTqqLFzjLdURqioDOA&utm_campaign=yelp_api_v3&utm_medium=api_v3_business_search&utm_source=LW1faTqqLFzjLdURqioDOA","review_count":1,"categories":[{"alias":"foodtrucks","title":"Food Trucks"},{"alias":"restaurants","title":"Restaurants"}],"rating":5.0,"coordinates":{"latitude":33.7843096692961,"longitude":-84.3830714374781},"transactions":[],"location":{"address1":"12th & Peachtree Street","address2":"","address3":null,"city":"Atlanta","zip_code":"30309","country":"US","state":"GA","display_address":["12th & Peachtree Street","Atlanta, GA 30309"]},"phone":"","display_phone":"","distance":3330.296017412806},{"id":"6VSyTgqFjHtTdNi5oipycQ","alias":"southern-crust-catering-atlanta","name":"Southern Crust Catering","image_url":"https://s3-media2.fl.yelpcdn.com/bphoto/owSVDSZtVMlajQn4bNvEpg/o.jpg","is_closed":false,"url":"https://www.yelp.com/biz/southern-crust-catering-atlanta?adjust_creative=LW1faTqqLFzjLdURqioDOA&utm_campaign=yelp_api_v3&utm_medium=api_v3_business_search&utm_source=LW1faTqqLFzjLdURqioDOA","review_count":2,"categories":[{"alias":"catering","title":"Caterers"}],"rating":5.0,"coordinates":{"latitude":33.9051885,"longitude":-84.291625},"transactions":[],"location":{"address1":"2377 John Glenn Dr","address2":"Ste 106","address3":null,"city":"Atlanta","zip_code":"30341","country":"US","state":"GA","display_address":["2377 John Glenn Dr","Ste 106","Atlanta, GA 30341"]},"phone":"+18446927878","display_phone":"(844) 692-7878","distance":12725.075372838886},{"id":"V9ePhJU_KTVN4kIO663IAw","alias":"mixd-up-burgers-atlanta-6","name":"Mix'D UP Burgers","image_url":"https://s3-media3.fl.yelpcdn.com/bphoto/Mr-WvPckYAhmIiVix9Td7w/o.jpg","is_closed":false,"url":"https://www.yelp.com/biz/mixd-up-burgers-atlanta-6?adjust_creative=LW1faTqqLFzjLdURqioDOA&utm_campaign=yelp_api_v3&utm_medium=api_v3_business_search&utm_source=LW1faTqqLFzjLdURqioDOA","review_count":106,"categories":[{"alias":"newamerican","title":"American (New)"},{"alias":"burgers","title":"Burgers"},{"alias":"foodtrucks","title":"Food Trucks"}],"rating":4.0,"coordinates":{"latitude":33.7459289510232,"longitude":-84.3684092123774},"transactions":["delivery","pickup"],"price":"$","location":{"address1":"313 Blvd SE","address2":"","address3":"","city":"Atlanta","zip_code":"30312","country":"US","state":"GA","display_address":["313 Blvd SE","Atlanta, GA 30312"]},"phone":"+14049632381","display_phone":"(404) 963-2381","distance":7497.173725865756},{"id":"Xt8eA8dyPqw_5NxK54Ye9A","alias":"9th-ave-street-food-atlanta","name":"9th Ave Street Food","image_url":"https://s3-media1.fl.yelpcdn.com/bphoto/TH-V15A_qbCrLEI7CksXXA/o.jpg","is_closed":false,"url":"https://www.yelp.com/biz/9th-ave-street-food-atlanta?adjust_creative=LW1faTqqLFzjLdURqioDOA&utm_campaign=yelp_api_v3&utm_medium=api_v3_business_search&utm_source=LW1faTqqLFzjLdURqioDOA","review_count":31,"categories":[{"alias":"foodtrucks","title":"Food Trucks"},{"alias":"foodstands","title":"Food Stands"}],"rating":4.5,"coordinates":{"latitude":33.7376751,"longitude":-84.4156224},"transactions":[],"price":"$","location":{"address1":"638 Evans St","address2":null,"address3":"","city":"Atlanta","zip_code":"30310","country":"US","state":"GA","display_address":["638 Evans St","Atlanta, GA 30310"]},"phone":"+14043073833","display_phone":"(404) 307-3833","distance":9252.94736754049},{"id":"e0vC5x8Ws4NLcuQRpCPUIg","alias":"epic-power-systems-atlanta-2","name":"Epic Power Systems","image_url":"https://s3-media1.fl.yelpcdn.com/bphoto/mopIHxMsy3utiUSrVSoRAg/o.jpg","is_closed":false,"url":"https://www.yelp.com/biz/epic-power-systems-atlanta-2?adjust_creative=LW1faTqqLFzjLdURqioDOA&utm_campaign=yelp_api_v3&utm_medium=api_v3_business_search&utm_source=LW1faTqqLFzjLdURqioDOA","review_count":3,"categories":[{"alias":"generatorinstallrepair","title":"Generator Installation/Repair"}],"rating":5.0,"coordinates":{"latitude":33.7600008,"longitude":-84.3899963},"transactions":[],"location":{"address1":"","address2":"","address3":"","city":"Atlanta","zip_code":"30301","country":"US","state":"GA","display_address":["Atlanta, GA 30301"]},"phone":"+18775045335","display_phone":"(877) 504-5335","distance":6107.2643495799675},{"id":"W_vOHuKrpZhzHYCIO32zQg","alias":"slutty-vegan-doraville","name":"Slutty Vegan","image_url":"https://s3-media1.fl.yelpcdn.com/bphoto/7hEUVqVJEVUuzNGpsYKHIQ/o.jpg","is_closed":false,"url":"https://www.yelp.com/biz/slutty-vegan-doraville?adjust_creative=LW1faTqqLFzjLdURqioDOA&utm_campaign=yelp_api_v3&utm_medium=api_v3_business_search&utm_source=LW1faTqqLFzjLdURqioDOA","review_count":47,"categories":[{"alias":"vegan","title":"Vegan"},{"alias":"foodtrucks","title":"Food Trucks"},{"alias":"burgers","title":"Burgers"}],"rating":4.5,"coordinates":{"latitude":33.88537,"longitude":-84.26475},"transactions":["delivery","pickup"],"location":{"address1":"3300 Marjan Dr","address2":"","address3":null,"city":"Doraville","zip_code":"30340","country":"US","state":"GA","display_address":["3300 Marjan Dr","Doraville, GA 30340"]},"phone":"","display_phone":"","distance":12872.522132582351},{"id":"PwcJr_94970pwvd76Fzl6g","alias":"scofflaw-brewing-atlanta-3","name":"Scofflaw Brewing","image_url":"https://s3-media1.fl.yelpcdn.com/bphoto/qGYN2bKDxCtCdeXofI73jg/o.jpg","is_closed":false,"url":"https://www.yelp.com/biz/scofflaw-brewing-atlanta-3?adjust_creative=LW1faTqqLFzjLdURqioDOA&utm_campaign=yelp_api_v3&utm_medium=api_v3_business_search&utm_source=LW1faTqqLFzjLdURqioDOA","review_count":55,"categories":[{"alias":"breweries","title":"Breweries"}],"rating":4.5,"coordinates":{"latitude":33.81333,"longitude":-84.44479},"transactions":[],"price":"$","location":{"address1":"1738 Macarthur Blvd NW","address2":"","address3":null,"city":"Atlanta","zip_code":"30318","country":"US","state":"GA","display_address":["1738 Macarthur Blvd NW","Atlanta, GA 30318"]},"phone":"+14043432832","display_phone":"(404) 343-2832","distance":6582.57696119601},{"id":"2GO6A3ZdYD43aauJNMpbnw","alias":"sidney-marcus-park-atlanta","name":"Sidney Marcus Park","image_url":"https://s3-media1.fl.yelpcdn.com/bphoto/PLvMnLwVzj5fGEodt4StcA/o.jpg","is_closed":false,"url":"https://www.yelp.com/biz/sidney-marcus-park-atlanta?adjust_creative=LW1faTqqLFzjLdURqioDOA&utm_campaign=yelp_api_v3&utm_medium=api_v3_business_search&utm_source=LW1faTqqLFzjLdURqioDOA","review_count":1,"categories":[{"alias":"parks","title":"Parks"},{"alias":"playgrounds","title":"Playgrounds"}],"rating":5.0,"coordinates":{"latitude":33.79673,"longitude":-84.361403},"transactions":[],"location":{"address1":"786 Cumberland Rd NE","address2":"","address3":"","city":"Atlanta","zip_code":"30306","country":"US","state":"GA","display_address":["786 Cumberland Rd NE","Atlanta, GA 30306"]},"phone":"","display_phone":"","distance":2152.876873573757}]}
